{
    "achillea millefolium": {
        "image": "http://upload.wikimedia.org/wikipedia/commons/thumb/1/17/Yarrow_%28Achillea_millefolium%29.jpg/220px-Yarrow_%28Achillea_millefolium%29.jpg",
        "key": "achillea millefolium",
        "places": [
            {
                "lat": "40.18999999999999772626324556767940521240234375",
                "lng": "-92.599999999999994315658113919198513031005859375",
                "name": "adair_county_missouri",
                "synonyms": [
                    "yarrow"
                ]
            },
            {
                "lat": "47.469999999999998863131622783839702606201171875",
                "lng": "-121.840000000000003410605131648480892181396484375",
                "name": "king_county_washington",
                "synonyms": [
                    "yarrow"
                ]
            },
            {
                "lat": "50.7999999999999971578290569595992565155029296875",
                "lng": "-2.29999999999999982236431605997495353221893310546875",
                "name": "dorset",
                "synonyms": [
                    "yarrow"
                ]
            },
            {
                "lat": "53.7999999999999971578290569595992565155029296875",
                "lng": "-2.600000000000000088817841970012523233890533447265625",
                "name": "lancashire",
                "synonyms": [
                    "yarrow"
                ]
            }
        ]
    },
    "allium tricoccum": {
        "image": "http://upload.wikimedia.org/wikipedia/commons/thumb/a/ad/RampBunch.png/220px-RampBunch.png",
        "key": "allium tricoccum",
        "places": [
            {
                "lat": "34.2741666699999996126280166208744049072265625",
                "lng": "-91.3838888899999943760121823288500308990478515625",
                "name": "arkansas_county_arkansas",
                "synonyms": [
                    "ramps"
                ]
            },
            {
                "lat": "33.208888889999997218183125369250774383544921875",
                "lng": "-91.7952777800000063734842115081846714019775390625",
                "name": "ashley_county_arkansas",
                "synonyms": [
                    "ramp"
                ]
            },
            {
                "lat": "33.9597222200000032898969948291778564453125",
                "lng": "-91.7186111099999976659091771580278873443603515625",
                "name": "lincoln_county_arkansas",
                "synonyms": [
                    "ramp"
                ]
            },
            {
                "lat": "38.0799999999999982946974341757595539093017578125",
                "lng": "-106.2999999999999971578290569595992565155029296875",
                "name": "saguache_county_colorado",
                "synonyms": [
                    "ramp"
                ]
            },
            {
                "lat": "31.480000000000000426325641456060111522674560546875",
                "lng": "-81.3700000000000045474735088646411895751953125",
                "name": "mcintosh_county_georgia",
                "synonyms": [
                    "ramps"
                ]
            },
            {
                "lat": "42.7772222199999987424234859645366668701171875",
                "lng": "-94.20416667000000643383827991783618927001953125",
                "name": "humboldt_county_iowa",
                "synonyms": [
                    "ramps"
                ]
            },
            {
                "lat": "42.11999999999999744204615126363933086395263671875",
                "lng": "-91.1347222200000004477260517887771129608154296875",
                "name": "jones_county_iowa",
                "synonyms": [
                    "ramp"
                ]
            },
            {
                "lat": "38.06000000000000227373675443232059478759765625",
                "lng": "-82.7300000000000039790393202565610408782958984375",
                "name": "lawrence_county_kentucky",
                "synonyms": [
                    "ramp"
                ]
            },
            {
                "lat": "37.21000000000000085265128291212022304534912109375",
                "lng": "-87.150000000000005684341886080801486968994140625",
                "name": "muhlenberg_county_kentucky",
                "synonyms": [
                    "ramp"
                ]
            },
            {
                "lat": "39.39999999999999857891452847979962825775146484375",
                "lng": "-76.599999999999994315658113919198513031005859375",
                "name": "baltimore_county_maryland",
                "synonyms": [
                    "ramp"
                ]
            },
            {
                "lat": "39.28333332999999782941813464276492595672607421875",
                "lng": "-79.366666670000000749496393837034702301025390625",
                "name": "garrett_county_maryland",
                "synonyms": [
                    "ramp",
                    "ramps"
                ]
            },
            {
                "lat": "39.28333332999999782941813464276492595672607421875",
                "lng": "-76.616666670000000749496393837034702301025390625",
                "name": "baltimore",
                "synonyms": [
                    "ramp",
                    "ramps"
                ]
            },
            {
                "lat": "42.25",
                "lng": "-84.4200000000000017053025658242404460906982421875",
                "name": "jackson_county_michigan",
                "synonyms": [
                    "ramps"
                ]
            },
            {
                "lat": "40.3599999999999994315658113919198513031005859375",
                "lng": "-94.8799999999999954525264911353588104248046875",
                "name": "nodaway_county_missouri",
                "synonyms": [
                    "ramp"
                ]
            },
            {
                "lat": "36.72999999999999687361196265555918216705322265625",
                "lng": "-98.31999999999999317878973670303821563720703125",
                "name": "alfalfa_county_oklahoma",
                "synonyms": [
                    "ramps"
                ]
            },
            {
                "lat": "35.36999999999999744204615126363933086395263671875",
                "lng": "-85.409999999999996589394868351519107818603515625",
                "name": "sequatchie_county_tennessee",
                "synonyms": [
                    "ramp"
                ]
            },
            {
                "lat": "30.300000000000000710542735760100185871124267578125",
                "lng": "-95.5",
                "name": "montgomery_county_texas",
                "synonyms": [
                    "ramps"
                ]
            },
            {
                "lat": "16.736944439999998479606801993213593959808349609375",
                "lng": "-169.523888889999994944446370936930179595947265625",
                "name": "johnston_atoll",
                "synonyms": [
                    "ramp"
                ]
            },
            {
                "lat": "19.29527777999999926805685390718281269073486328125",
                "lng": "166.6311111100000061924220062792301177978515625",
                "name": "wake_island",
                "synonyms": [
                    "ramps"
                ]
            },
            {
                "lat": "38.030000000000001136868377216160297393798828125",
                "lng": "-78.56000000000000227373675443232059478759765625",
                "name": "albemarle_county_virginia",
                "synonyms": [
                    "ramp"
                ]
            },
            {
                "lat": "37.070833329999999250503606162965297698974609375",
                "lng": "-76.48444444000000430605723522603511810302734375",
                "name": "newport_news_virginia",
                "synonyms": [
                    "ramp",
                    "ramps"
                ]
            },
            {
                "lat": "37.53333332999999782941813464276492595672607421875",
                "lng": "-77.46666666999999506515450775623321533203125",
                "name": "richmond_virginia",
                "synonyms": [
                    "ramp"
                ]
            },
            {
                "lat": "36.85000000000000142108547152020037174224853515625",
                "lng": "-75.9777777799999967101030051708221435546875",
                "name": "virginia_beach_virginia",
                "synonyms": [
                    "ramp",
                    "ramps"
                ]
            },
            {
                "lat": "45.21000000000000085265128291212022304534912109375",
                "lng": "-90.5",
                "name": "taylor_county_wisconsin",
                "synonyms": [
                    "ramp"
                ]
            }
        ]
    },
    "almond": {
        "image": "http://upload.wikimedia.org/wikipedia/commons/thumb/8/89/Prunus_dulcis_-_K%C3%B6hler%E2%80%93s_Medizinal-Pflanzen-250.jpg/220px-Prunus_dulcis_-_K%C3%B6hler%E2%80%93s_Medizinal-Pflanzen-250.jpg",
        "key": "almond",
        "places": [
            {
                "lat": "33.20653999999999683723217458464205265045166015625",
                "lng": "-87.53460699999999405918060801923274993896484375",
                "name": "tuscaloosa_county_alabama",
                "synonyms": [
                    "almond"
                ]
            },
            {
                "lat": "45.42999999999999971578290569595992565155029296875",
                "lng": "-96.409999999999996589394868351519107818603515625",
                "name": "big_stone_county_minnesota",
                "synonyms": [
                    "almond"
                ]
            },
            {
                "lat": "38.6099999999999994315658113919198513031005859375",
                "lng": "-78.4800000000000039790393202565610408782958984375",
                "name": "page_county_virginia",
                "synonyms": [
                    "almond"
                ]
            },
            {
                "lat": "37.4036111099999999396459315903484821319580078125",
                "lng": "-79.1700000000000017053025658242404460906982421875",
                "name": "lynchburg_virginia",
                "synonyms": [
                    "almond"
                ]
            },
            {
                "lat": "36.9166666699999979073254507966339588165283203125",
                "lng": "-76.2000000000000028421709430404007434844970703125",
                "name": "norfolk_virginia",
                "synonyms": [
                    "almond"
                ]
            },
            {
                "lat": "37.21294999999999930651028989814221858978271484375",
                "lng": "-77.40041700000000446379999630153179168701171875",
                "name": "petersburg_virginia",
                "synonyms": [
                    "almond"
                ]
            }
        ]
    },
    "amaranth": {
        "image": "http://upload.wikimedia.org/wikipedia/commons/thumb/9/91/Amaranthus_tricolor0.jpg/220px-Amaranthus_tricolor0.jpg",
        "key": "amaranth",
        "places": [
            {
                "lat": "-0.36666666999999997234027659942512400448322296142578125",
                "lng": "-160.01666667000000643383827991783618927001953125",
                "name": "jarvis_island",
                "synonyms": [
                    "amaranth"
                ]
            }
        ]
    },
    "amelanchier": {
        "image": "http://upload.wikimedia.org/wikipedia/commons/thumb/1/16/Amelanchier_grandiflora2.jpg/220px-Amelanchier_grandiflora2.jpg",
        "key": "amelanchier",
        "places": [
            {
                "lat": "58.30144849999999934198058326728641986846923828125",
                "lng": "-134.421612500000009049472282640635967254638671875",
                "name": "juneau_alaska",
                "synonyms": [
                    "saskatoon"
                ]
            },
            {
                "lat": "40.47999999999999687361196265555918216705322265625",
                "lng": "-106.9899999999999948840923025272786617279052734375",
                "name": "routt_county_colorado",
                "synonyms": [
                    "sarvis"
                ]
            },
            {
                "lat": "40.35000000000000142108547152020037174224853515625",
                "lng": "-87.3599999999999994315658113919198513031005859375",
                "name": "warren_county_indiana",
                "synonyms": [
                    "serviceberry"
                ]
            },
            {
                "lat": "38.6400000000000005684341886080801486968994140625",
                "lng": "-90.43999999999999772626324556767940521240234375",
                "name": "st._louis_county_missouri",
                "synonyms": [
                    "serviceberry"
                ]
            },
            {
                "lat": "38.62722222000000016350895748473703861236572265625",
                "lng": "-90.197777779999995573234627954661846160888671875",
                "name": "st._louis",
                "synonyms": [
                    "serviceberry"
                ]
            }
        ]
    },
    "american chestnut": {
        "image": "http://upload.wikimedia.org/wikipedia/commons/thumb/d/d0/American_Chestnut.JPG/220px-American_Chestnut.JPG",
        "key": "american chestnut",
        "places": [
            {
                "lat": "37.1099999999999994315658113919198513031005859375",
                "lng": "-85.280000000000001136868377216160297393798828125",
                "name": "adair_county_kentucky",
                "synonyms": [
                    "american chestnut"
                ]
            }
        ]
    },
    "american pawpaw": {
        "image": "http://upload.wikimedia.org/wikipedia/commons/thumb/1/15/Asimina_triloba3.jpg/220px-Asimina_triloba3.jpg",
        "key": "american pawpaw",
        "places": [
            {
                "lat": "41.93999999999999772626324556767940521240234375",
                "lng": "-86.590000000000003410605131648480892181396484375",
                "name": "berrien_county_michigan",
                "synonyms": [
                    "paw paw"
                ]
            },
            {
                "lat": "42.27000000000000312638803734444081783294677734375",
                "lng": "-86.31000000000000227373675443232059478759765625",
                "name": "van_buren_county_michigan",
                "synonyms": [
                    "paw paw"
                ]
            },
            {
                "lat": "None",
                "lng": "None",
                "name": "ste._genevieve_county_missouri",
                "synonyms": [
                    "paw paw"
                ]
            },
            {
                "lat": "37.78194443999999663219568901695311069488525390625",
                "lng": "-90.4222222199999947633841657079756259918212890625",
                "name": "st._francois_county_missouri",
                "synonyms": [
                    "papaw"
                ]
            }
        ]
    },
    "angiosperm": {
        "image": "http://upload.wikimedia.org/wikipedia/commons/thumb/a/a5/Flower_poster_2.jpg/220px-Flower_poster_2.jpg",
        "key": "angiosperm",
        "places": [
            {
                "lat": "38.32000000000000028421709430404007434844970703125",
                "lng": "-85.900000000000005684341886080801486968994140625",
                "name": "floyd_county_indiana",
                "synonyms": [
                    "flowering plants"
                ]
            }
        ]
    },
    "antidesma bunius": {
        "image": "http://upload.wikimedia.org/wikipedia/commons/thumb/0/09/Antidesma_bunius_LeavesFruits_BotGardBln0906.JPG/220px-Antidesma_bunius_LeavesFruits_BotGardBln0906.JPG",
        "key": "antidesma bunius",
        "places": [
            {
                "lat": "40.68999999999999772626324556767940521240234375",
                "lng": "-80.349999999999994315658113919198513031005859375",
                "name": "beaver_county_pennsylvania",
                "synonyms": [
                    "wild cherry"
                ]
            }
        ]
    },
    "apple": {
        "image": "http://upload.wikimedia.org/wikipedia/commons/thumb/f/f4/Honeycrisp.jpg/220px-Honeycrisp.jpg",
        "key": "apple",
        "places": [
            {
                "lat": "34.3680555600000019467188394628465175628662109375",
                "lng": "-86.30388888999999608131474815309047698974609375",
                "name": "marshall_county_alabama",
                "synonyms": [
                    "apple"
                ]
            },
            {
                "lat": "31.9849999999999994315658113919198513031005859375",
                "lng": "-87.3108333299999941345959086902439594268798828125",
                "name": "wilcox_county_alabama",
                "synonyms": [
                    "apple"
                ]
            },
            {
                "lat": "61.21666667000000217058186535723507404327392578125",
                "lng": "-149.900000000000005684341886080801486968994140625",
                "name": "anchorage_alaska",
                "synonyms": [
                    "apple"
                ]
            },
            {
                "lat": "36.00249999999999772626324556767940521240234375",
                "lng": "-94.2272222200000015845944290049374103546142578125",
                "name": "washington_county_arkansas",
                "synonyms": [
                    "apple"
                ]
            },
            {
                "lat": "34.8299999999999982946974341757595539093017578125",
                "lng": "-116.18999999999999772626324556767940521240234375",
                "name": "san_bernardino_county_california",
                "synonyms": [
                    "apple"
                ]
            },
            {
                "lat": "37.78333332999999782941813464276492595672607421875",
                "lng": "-122.4166666699999979073254507966339588165283203125",
                "name": "san_francisco",
                "synonyms": [
                    "apple"
                ]
            },
            {
                "lat": "37.3599999999999994315658113919198513031005859375",
                "lng": "-121.969999999999998863131622783839702606201171875",
                "name": "santa_clara_county_california",
                "synonyms": [
                    "apple"
                ]
            },
            {
                "lat": "38.67999999999999971578290569595992565155029296875",
                "lng": "-75.340000000000003410605131648480892181396484375",
                "name": "sussex_county_delaware",
                "synonyms": [
                    "apple"
                ]
            },
            {
                "lat": "27.489999999999998436805981327779591083526611328125",
                "lng": "-81.81000000000000227373675443232059478759765625",
                "name": "hardee_county_florida",
                "synonyms": [
                    "apple"
                ]
            },
            {
                "lat": "30.6099999999999994315658113919198513031005859375",
                "lng": "-81.7699999999999960209606797434389591217041015625",
                "name": "nassau_county_florida",
                "synonyms": [
                    "apple"
                ]
            },
            {
                "lat": "34.68999999999999772626324556767940521240234375",
                "lng": "-84.4599999999999937472239253111183643341064453125",
                "name": "gilmer_county_georgia",
                "synonyms": [
                    "apple"
                ]
            },
            {
                "lat": "39.35000000000000142108547152020037174224853515625",
                "lng": "-90.3900000000000005684341886080801486968994140625",
                "name": "greene_county_illinois",
                "synonyms": [
                    "apple"
                ]
            },
            {
                "lat": "42.3599999999999994315658113919198513031005859375",
                "lng": "-90.2099999999999937472239253111183643341064453125",
                "name": "jo_daviess_county_illinois",
                "synonyms": [
                    "apple"
                ]
            },
            {
                "lat": "38.53999999999999914734871708787977695465087890625",
                "lng": "-86.5",
                "name": "orange_county_indiana",
                "synonyms": [
                    "apple"
                ]
            },
            {
                "lat": "40.14999999999999857891452847979962825775146484375",
                "lng": "-85.0100000000000051159076974727213382720947265625",
                "name": "randolph_county_indiana",
                "synonyms": [
                    "apple"
                ]
            },
            {
                "lat": "37.32000000000000028421709430404007434844970703125",
                "lng": "-84.93000000000000682121026329696178436279296875",
                "name": "casey_county_kentucky",
                "synonyms": [
                    "apple"
                ]
            },
            {
                "lat": "37.840000000000003410605131648480892181396484375",
                "lng": "-82.8299999999999982946974341757595539093017578125",
                "name": "johnson_county_kentucky",
                "synonyms": [
                    "apple"
                ]
            },
            {
                "lat": "44.67999999999999971578290569595992565155029296875",
                "lng": "-93.06000000000000227373675443232059478759765625",
                "name": "dakota_county_minnesota",
                "synonyms": [
                    "apple"
                ]
            },
            {
                "lat": "34.25",
                "lng": "-90.2900000000000062527760746888816356658935546875",
                "name": "quitman_county_mississippi",
                "synonyms": [
                    "apple"
                ]
            },
            {
                "lat": "None",
                "lng": "None",
                "name": "boone_county_missouri",
                "synonyms": [
                    "apple"
                ]
            },
            {
                "lat": "37.71000000000000085265128291212022304534912109375",
                "lng": "-89.8299999999999982946974341757595539093017578125",
                "name": "perry_county_missouri",
                "synonyms": [
                    "apple"
                ]
            },
            {
                "lat": "37.280000000000001136868377216160297393798828125",
                "lng": "-92.8700000000000045474735088646411895751953125",
                "name": "webster_county_missouri",
                "synonyms": [
                    "apple"
                ]
            },
            {
                "lat": "41.53999999999999914734871708787977695465087890625",
                "lng": "-81.659999999999996589394868351519107818603515625",
                "name": "cuyahoga_county_ohio",
                "synonyms": [
                    "apple"
                ]
            },
            {
                "lat": "39.02000000000000312638803734444081783294677734375",
                "lng": "-82.6200000000000045474735088646411895751953125",
                "name": "jackson_county_ohio",
                "synonyms": [
                    "apple"
                ]
            },
            {
                "lat": "45.5799999999999982946974341757595539093017578125",
                "lng": "-117.1700000000000017053025658242404460906982421875",
                "name": "wallowa_county_oregon",
                "synonyms": [
                    "apple"
                ]
            },
            {
                "lat": "39.86999999999999744204615126363933086395263671875",
                "lng": "-77.219999999999998863131622783839702606201171875",
                "name": "adams_county_pennsylvania",
                "synonyms": [
                    "apple"
                ]
            },
            {
                "lat": "33.6099999999999994315658113919198513031005859375",
                "lng": "-101.2999999999999971578290569595992565155029296875",
                "name": "crosby_county_texas",
                "synonyms": [
                    "apple"
                ]
            },
            {
                "lat": "31.449999999999999289457264239899814128875732421875",
                "lng": "-105.3700000000000045474735088646411895751953125",
                "name": "hudspeth_county_texas",
                "synonyms": [
                    "apple"
                ]
            },
            {
                "lat": "31.089999999999999857891452847979962825775146484375",
                "lng": "-95.1200000000000045474735088646411895751953125",
                "name": "trinity_county_texas",
                "synonyms": [
                    "apple"
                ]
            },
            {
                "lat": "37.280000000000001136868377216160297393798828125",
                "lng": "-113.5199999999999960209606797434389591217041015625",
                "name": "washington_county_utah",
                "synonyms": [
                    "apple"
                ]
            },
            {
                "lat": "17.739722220000000874051693244837224483489990234375",
                "lng": "-64.73888888999999835505150258541107177734375",
                "name": "saint_croix",
                "synonyms": [
                    "apple"
                ]
            },
            {
                "lat": "37.340000000000003410605131648480892181396484375",
                "lng": "-77.9800000000000039790393202565610408782958984375",
                "name": "amelia_county_virginia",
                "synonyms": [
                    "apple"
                ]
            },
            {
                "lat": "37.6099999999999994315658113919198513031005859375",
                "lng": "-79.1400000000000005684341886080801486968994140625",
                "name": "amherst_county_virginia",
                "synonyms": [
                    "apple"
                ]
            },
            {
                "lat": "37.5499999999999971578290569595992565155029296875",
                "lng": "-77.400000000000005684341886080801486968994140625",
                "name": "henrico_county_virginia",
                "synonyms": [
                    "apple"
                ]
            },
            {
                "lat": "37.4036111099999999396459315903484821319580078125",
                "lng": "-79.1700000000000017053025658242404460906982421875",
                "name": "lynchburg_virginia",
                "synonyms": [
                    "apple"
                ]
            },
            {
                "lat": "39.18333333000000351376002072356641292572021484375",
                "lng": "-78.1666666699999979073254507966339588165283203125",
                "name": "winchester_virginia",
                "synonyms": [
                    "apple"
                ]
            },
            {
                "lat": "45.02000000000000312638803734444081783294677734375",
                "lng": "-87.0100000000000051159076974727213382720947265625",
                "name": "door_county_wisconsin",
                "synonyms": [
                    "apple"
                ]
            },
            {
                "lat": "51.4500000000000028421709430404007434844970703125",
                "lng": "-2.583333329999999872228499953052960336208343505859375",
                "name": "bristol",
                "synonyms": [
                    "apple",
                    "apple tree"
                ]
            },
            {
                "lat": "50.39999999999999857891452847979962825775146484375",
                "lng": "-4.9000000000000003552713678800500929355621337890625",
                "name": "cornwall",
                "synonyms": [
                    "apple"
                ]
            },
            {
                "lat": "52.0833333300000020926745492033660411834716796875",
                "lng": "-2.75",
                "name": "herefordshire",
                "synonyms": [
                    "apple"
                ]
            },
            {
                "lat": "51.10000000000000142108547152020037174224853515625",
                "lng": "-2.899999999999999911182158029987476766109466552734375",
                "name": "somerset",
                "synonyms": [
                    "apple"
                ]
            },
            {
                "lat": "54.5",
                "lng": "-2.583333329999999872228499953052960336208343505859375",
                "name": "westmorland",
                "synonyms": [
                    "apple",
                    "apple tree"
                ]
            },
            {
                "lat": "52.2000000000000028421709430404007434844970703125",
                "lng": "-2.166666670000000127771500046947039663791656494140625",
                "name": "worcestershire",
                "synonyms": [
                    "apple"
                ]
            }
        ]
    },
    "apple fruit": {
        "image": "http://upload.wikimedia.org/wikipedia/commons/thumb/f/f4/Honeycrisp.jpg/220px-Honeycrisp.jpg",
        "key": "apple fruit",
        "places": [
            {
                "lat": "18.836388889999998497160049737431108951568603515625",
                "lng": "-90.4033333299999952714642859064042568206787109375",
                "name": "campeche",
                "synonyms": [
                    "fruit"
                ]
            }
        ]
    },
    "arctostaphylos": {
        "image": "http://upload.wikimedia.org/wikipedia/commons/thumb/f/fa/Arctostaphylos_patula_08154.JPG/220px-Arctostaphylos_patula_08154.JPG",
        "key": "arctostaphylos",
        "places": [
            {
                "lat": "45.46000000000000085265128291212022304534912109375",
                "lng": "-123.7000000000000028421709430404007434844970703125",
                "name": "tillamook_county_oregon",
                "synonyms": [
                    "manzanita"
                ]
            }
        ]
    },
    "arecaceae": {
        "image": "http://upload.wikimedia.org/wikipedia/commons/thumb/7/7a/1859-Martinique.web.jpg/220px-1859-Martinique.web.jpg",
        "key": "arecaceae",
        "places": [
            {
                "lat": "33.72999999999999687361196265555918216705322265625",
                "lng": "-115.9800000000000039790393202565610408782958984375",
                "name": "riverside_county_california",
                "synonyms": [
                    "palms",
                    "palmas"
                ]
            },
            {
                "lat": "34.8299999999999982946974341757595539093017578125",
                "lng": "-116.18999999999999772626324556767940521240234375",
                "name": "san_bernardino_county_california",
                "synonyms": [
                    "palms"
                ]
            },
            {
                "lat": "27.339999999999999857891452847979962825775146484375",
                "lng": "-81.340000000000003410605131648480892181396484375",
                "name": "highlands_county_florida",
                "synonyms": [
                    "palms"
                ]
            },
            {
                "lat": "26.5799999999999982946974341757595539093017578125",
                "lng": "-81.9200000000000017053025658242404460906982421875",
                "name": "lee_county_florida",
                "synonyms": [
                    "palms"
                ]
            },
            {
                "lat": "29.21000000000000085265128291212022304534912109375",
                "lng": "-82.06000000000000227373675443232059478759765625",
                "name": "marion_county_florida",
                "synonyms": [
                    "palm trees"
                ]
            },
            {
                "lat": "26.71000000000000085265128291212022304534912109375",
                "lng": "-80.0499999999999971578290569595992565155029296875",
                "name": "palm_beach_county_florida",
                "synonyms": [
                    "palm trees"
                ]
            },
            {
                "lat": "28.300000000000000710542735760100185871124267578125",
                "lng": "-82.43999999999999772626324556767940521240234375",
                "name": "pasco_county_florida",
                "synonyms": [
                    "palms"
                ]
            },
            {
                "lat": "27.89999999999999857891452847979962825775146484375",
                "lng": "-82.7399999999999948840923025272786617279052734375",
                "name": "pinellas_county_florida",
                "synonyms": [
                    "palms"
                ]
            },
            {
                "lat": "13.5",
                "lng": "144.80000000000001136868377216160297393798828125",
                "name": "guam",
                "synonyms": [
                    "palms"
                ]
            },
            {
                "lat": "36.2000000000000028421709430404007434844970703125",
                "lng": "-115.0199999999999960209606797434389591217041015625",
                "name": "clark_county_nevada",
                "synonyms": [
                    "palms"
                ]
            },
            {
                "lat": "15.183333329999999961046341923065483570098876953125",
                "lng": "145.75",
                "name": "saipan",
                "synonyms": [
                    "palms"
                ]
            },
            {
                "lat": "31.449999999999999289457264239899814128875732421875",
                "lng": "-104.5199999999999960209606797434389591217041015625",
                "name": "culberson_county_texas",
                "synonyms": [
                    "palmas"
                ]
            },
            {
                "lat": "31.449999999999999289457264239899814128875732421875",
                "lng": "-105.3700000000000045474735088646411895751953125",
                "name": "hudspeth_county_texas",
                "synonyms": [
                    "palmas"
                ]
            },
            {
                "lat": "30.719999999999998863131622783839702606201171875",
                "lng": "-104.1299999999999954525264911353588104248046875",
                "name": "jeff_davis_county_texas",
                "synonyms": [
                    "palmas"
                ]
            },
            {
                "lat": "0.194722220000000001416395889464183710515499114990234375",
                "lng": "-176.47944444000000885353074409067630767822265625",
                "name": "baker_island",
                "synonyms": [
                    "palms"
                ]
            },
            {
                "lat": "16.736944439999998479606801993213593959808349609375",
                "lng": "-169.523888889999994944446370936930179595947265625",
                "name": "johnston_atoll",
                "synonyms": [
                    "palm trees"
                ]
            },
            {
                "lat": "6.38333333000000013868202586309053003787994384765625",
                "lng": "-162.416666670000012118180165998637676239013671875",
                "name": "kingman_reef",
                "synonyms": [
                    "palms"
                ]
            },
            {
                "lat": "5.883611110000000365971573046408593654632568359375",
                "lng": "-162.078333329999992429293342866003513336181640625",
                "name": "palmyra_atoll",
                "synonyms": [
                    "palms"
                ]
            },
            {
                "lat": "17.739722220000000874051693244837224483489990234375",
                "lng": "-64.73888888999999835505150258541107177734375",
                "name": "saint_croix",
                "synonyms": [
                    "palm trees"
                ]
            },
            {
                "lat": "40.61609167000000297775841318070888519287109375",
                "lng": "-4.92903056000000017178308553411625325679779052734375",
                "name": "provincia_de_치vila",
                "synonyms": [
                    "palmeras"
                ]
            },
            {
                "lat": "40.1666666699999979073254507966339588165283203125",
                "lng": "-0.1666666699999999889936219688024721108376979827880859375",
                "name": "provincia_de_castell칩n",
                "synonyms": [
                    "palmas"
                ]
            },
            {
                "lat": "40.5",
                "lng": "-3.666666670000000127771500046947039663791656494140625",
                "name": "comunidad_de_madrid",
                "synonyms": [
                    "palmas"
                ]
            },
            {
                "lat": "38",
                "lng": "-1.8333333300000000942731048780842684209346771240234375",
                "name": "regi칩n_de_murcia",
                "synonyms": [
                    "palmas"
                ]
            },
            {
                "lat": "28.333333329999998539960870402865111827850341796875",
                "lng": "-14.3333333300000003163177098031155765056610107421875",
                "name": "provincia_de_las_palmas",
                "synonyms": [
                    "palmas"
                ]
            },
            {
                "lat": "37.5",
                "lng": "-5.5",
                "name": "provincia_de_sevilla",
                "synonyms": [
                    "palmas"
                ]
            },
            {
                "lat": "28.166666670000001460039129597134888172149658203125",
                "lng": "-17.333333329999998539960870402865111827850341796875",
                "name": "provincia_de_santa_cruz_de_tenerife",
                "synonyms": [
                    "palmas"
                ]
            },
            {
                "lat": "35.8866670000000027584974304772913455963134765625",
                "lng": "-5.29999999999999982236431605997495353221893310546875",
                "name": "ceuta",
                "synonyms": [
                    "palmeras"
                ]
            },
            {
                "lat": "35.282499999999998863131622783839702606201171875",
                "lng": "-2.9474999999999997868371792719699442386627197265625",
                "name": "melilla",
                "synonyms": [
                    "palmeras"
                ]
            },
            {
                "lat": "29.949999999999999289457264239899814128875732421875",
                "lng": "-115.116666670000000749496393837034702301025390625",
                "name": "baja_california",
                "synonyms": [
                    "palmas"
                ]
            },
            {
                "lat": "19.096666670000001175822035293094813823699951171875",
                "lng": "-103.9608333299999998189377947710454463958740234375",
                "name": "colima",
                "synonyms": [
                    "palmeras",
                    "palmas"
                ]
            }
        ]
    },
    "armeniaca vulgaris": {
        "image": "http://upload.wikimedia.org/wikipedia/commons/thumb/f/f9/Apricots.jpg/220px-Apricots.jpg",
        "key": "armeniaca vulgaris",
        "places": [
            {
                "lat": "18.406388889999998781377144041471183300018310546875",
                "lng": "-66.0638888900000011972224456258118152618408203125",
                "name": "san_juan_puerto_rico",
                "synonyms": [
                    "damasco"
                ]
            },
            {
                "lat": "38.5",
                "lng": "-0.5",
                "name": "provincia_de_alicante",
                "synonyms": [
                    "albaricoque"
                ]
            },
            {
                "lat": "42.6666666699999979073254507966339588165283203125",
                "lng": "-6",
                "name": "provincia_de_le칩n",
                "synonyms": [
                    "damasco"
                ]
            },
            {
                "lat": "19.00361111000000136073140311054885387420654296875",
                "lng": "-97.888333329999994703030097298324108123779296875",
                "name": "puebla",
                "synonyms": [
                    "chabacano"
                ]
            },
            {
                "lat": "19.428888889999999634028426953591406345367431640625",
                "lng": "-98.16083333000000266110873781144618988037109375",
                "name": "tlaxcala",
                "synonyms": [
                    "chabacano"
                ]
            }
        ]
    },
    "arugula": {
        "image": "http://upload.wikimedia.org/wikipedia/commons/thumb/7/79/Eruca_sativa_1_IP0206101.jpg/220px-Eruca_sativa_1_IP0206101.jpg",
        "key": "arugula",
        "places": [
            {
                "lat": "33.2722222200000032898969948291778564453125",
                "lng": "-85.861111109999995960606611333787441253662109375",
                "name": "clay_county_alabama",
                "synonyms": [
                    "rocket"
                ]
            },
            {
                "lat": "34.8111111099999988027775543741881847381591796875",
                "lng": "-86.9841666699999933598519419319927692413330078125",
                "name": "limestone_county_alabama",
                "synonyms": [
                    "rocket"
                ]
            },
            {
                "lat": "34.76583332999999953472070046700537204742431640625",
                "lng": "-86.5577777799999950048004393465816974639892578125",
                "name": "madison_county_alabama",
                "synonyms": [
                    "rocket"
                ]
            },
            {
                "lat": "28.300000000000000710542735760100185871124267578125",
                "lng": "-80.7000000000000028421709430404007434844970703125",
                "name": "brevard_county_florida",
                "synonyms": [
                    "rocket"
                ]
            },
            {
                "lat": "30.9200000000000017053025658242404460906982421875",
                "lng": "-81.6400000000000005684341886080801486968994140625",
                "name": "camden_county_georgia",
                "synonyms": [
                    "rocket"
                ]
            },
            {
                "lat": "38.883333329999999250503606162965297698974609375",
                "lng": "-97.1666666699999979073254507966339588165283203125",
                "name": "dickinson_county_kansas",
                "synonyms": [
                    "rocket"
                ]
            },
            {
                "lat": "29.949999999999999289457264239899814128875732421875",
                "lng": "-90.0799999999999982946974341757595539093017578125",
                "name": "new_orleans",
                "synonyms": [
                    "rocket"
                ]
            },
            {
                "lat": "30.3900000000000005684341886080801486968994140625",
                "lng": "-89.469999999999998863131622783839702606201171875",
                "name": "hancock_county_mississippi",
                "synonyms": [
                    "rocket"
                ]
            },
            {
                "lat": "16.736944439999998479606801993213593959808349609375",
                "lng": "-169.523888889999994944446370936930179595947265625",
                "name": "johnston_atoll",
                "synonyms": [
                    "rocket"
                ]
            },
            {
                "lat": "19.29527777999999926805685390718281269073486328125",
                "lng": "166.6311111100000061924220062792301177978515625",
                "name": "wake_island",
                "synonyms": [
                    "rocket"
                ]
            },
            {
                "lat": "38.804722220000002153028617613017559051513671875",
                "lng": "-77.0472222199999947633841657079756259918212890625",
                "name": "alexandria_virginia",
                "synonyms": [
                    "rocket"
                ]
            },
            {
                "lat": "37.03494599999999792316884850151836872100830078125",
                "lng": "-76.3601259999999939509507385082542896270751953125",
                "name": "hampton_virginia",
                "synonyms": [
                    "rocket"
                ]
            },
            {
                "lat": "41.659999999999996589394868351519107818603515625",
                "lng": "-108.8900000000000005684341886080801486968994140625",
                "name": "sweetwater_county_wyoming",
                "synonyms": [
                    "rocket"
                ]
            },
            {
                "lat": "50.6666666699999979073254507966339588165283203125",
                "lng": "-1.2666666699999999945447370919282548129558563232421875",
                "name": "isle_of_wight",
                "synonyms": [
                    "rocket"
                ]
            }
        ]
    },
    "asimina triloba": {
        "image": "http://upload.wikimedia.org/wikipedia/commons/thumb/1/15/Asimina_triloba3.jpg/220px-Asimina_triloba3.jpg",
        "key": "asimina triloba",
        "places": [
            {
                "lat": "41.93999999999999772626324556767940521240234375",
                "lng": "-86.590000000000003410605131648480892181396484375",
                "name": "berrien_county_michigan",
                "synonyms": [
                    "paw paw"
                ]
            },
            {
                "lat": "42.27000000000000312638803734444081783294677734375",
                "lng": "-86.31000000000000227373675443232059478759765625",
                "name": "van_buren_county_michigan",
                "synonyms": [
                    "paw paw"
                ]
            },
            {
                "lat": "None",
                "lng": "None",
                "name": "ste._genevieve_county_missouri",
                "synonyms": [
                    "paw paw"
                ]
            },
            {
                "lat": "37.78194443999999663219568901695311069488525390625",
                "lng": "-90.4222222199999947633841657079756259918212890625",
                "name": "st._francois_county_missouri",
                "synonyms": [
                    "papaw"
                ]
            }
        ]
    },
    "asparagus": {
        "image": "http://upload.wikimedia.org/wikipedia/commons/thumb/3/3d/Asparagus-Bundle.jpg/110px-Asparagus-Bundle.jpg",
        "key": "asparagus",
        "places": [
            {
                "lat": "43.659999999999996589394868351519107818603515625",
                "lng": "-86.530000000000001136868377216160297393798828125",
                "name": "oceana_county_michigan",
                "synonyms": [
                    "asparagus"
                ]
            }
        ]
    },
    "atriplex": {
        "image": "http://upload.wikimedia.org/wikipedia/commons/thumb/c/c9/Atriplex_hortensis_cleaned_Sturm.png/220px-Atriplex_hortensis_cleaned_Sturm.png",
        "key": "atriplex",
        "places": [
            {
                "lat": "47.1099999999999994315658113919198513031005859375",
                "lng": "-108.2600000000000051159076974727213382720947265625",
                "name": "petroleum_county_montana",
                "synonyms": [
                    "saltbush"
                ]
            }
        ]
    },
    "avocado": {
        "image": "http://upload.wikimedia.org/wikipedia/commons/thumb/f/f2/Persea_americana_fruit_2.JPG/220px-Persea_americana_fruit_2.JPG",
        "key": "avocado",
        "places": [
            {
                "lat": "36.75",
                "lng": "-119.650000000000005684341886080801486968994140625",
                "name": "fresno_county_california",
                "synonyms": [
                    "avocado"
                ]
            },
            {
                "lat": "37.25",
                "lng": "-3.25",
                "name": "provincia_de_granada",
                "synonyms": [
                    "aguacate",
                    "aguacate"
                ]
            },
            {
                "lat": "22.021666669999998333651092252694070339202880859375",
                "lng": "-102.35638889000000517626176588237285614013671875",
                "name": "aguascalientes",
                "synonyms": [
                    "aguacate",
                    "aguacate"
                ]
            },
            {
                "lat": "18.836388889999998497160049737431108951568603515625",
                "lng": "-90.4033333299999952714642859064042568206787109375",
                "name": "campeche",
                "synonyms": [
                    "aguacate",
                    "aguacate"
                ]
            },
            {
                "lat": "16.410000000000000142108547152020037174224853515625",
                "lng": "-92.4086111099999953921724227257072925567626953125",
                "name": "chiapas",
                "synonyms": [
                    "aguacate",
                    "aguacate"
                ]
            },
            {
                "lat": "27.302222220000000874051693244837224483489990234375",
                "lng": "-102.0447222199999970371209201402962207794189453125",
                "name": "coahuila",
                "synonyms": [
                    "aguacate",
                    "aguacate"
                ]
            },
            {
                "lat": "21.018888889999999491919879801571369171142578125",
                "lng": "-101.262777779999993299497873522341251373291015625",
                "name": "guanajuato",
                "synonyms": [
                    "aguacate",
                    "aguacate"
                ]
            },
            {
                "lat": "20.566666670000000038953658076934516429901123046875",
                "lng": "-103.67638888999999835505150258541107177734375",
                "name": "jalisco",
                "synonyms": [
                    "aguacate",
                    "aguacate"
                ]
            },
            {
                "lat": "18.747499999999998721023075631819665431976318359375",
                "lng": "-99.070277779999997846971382386982440948486328125",
                "name": "morelos",
                "synonyms": [
                    "aguacate",
                    "aguacate"
                ]
            },
            {
                "lat": "21.74388889000000091300535132177174091339111328125",
                "lng": "-105.22833332999999811363522894680500030517578125",
                "name": "nayarit",
                "synonyms": [
                    "aguacate",
                    "aguacate"
                ]
            },
            {
                "lat": "16.898055559999999530873537878505885601043701171875",
                "lng": "-96.4141666700000001810622052289545536041259765625",
                "name": "oaxaca",
                "synonyms": [
                    "aguacate",
                    "aguacate"
                ]
            },
            {
                "lat": "36.75",
                "lng": "-119.650000000000005684341886080801486968994140625",
                "name": "fresno_county_california",
                "synonyms": [
                    "avocado"
                ]
            },
            {
                "lat": "37.25",
                "lng": "-3.25",
                "name": "provincia_de_granada",
                "synonyms": [
                    "aguacate",
                    "aguacate"
                ]
            },
            {
                "lat": "22.021666669999998333651092252694070339202880859375",
                "lng": "-102.35638889000000517626176588237285614013671875",
                "name": "aguascalientes",
                "synonyms": [
                    "aguacate",
                    "aguacate"
                ]
            },
            {
                "lat": "18.836388889999998497160049737431108951568603515625",
                "lng": "-90.4033333299999952714642859064042568206787109375",
                "name": "campeche",
                "synonyms": [
                    "aguacate",
                    "aguacate"
                ]
            },
            {
                "lat": "16.410000000000000142108547152020037174224853515625",
                "lng": "-92.4086111099999953921724227257072925567626953125",
                "name": "chiapas",
                "synonyms": [
                    "aguacate",
                    "aguacate"
                ]
            },
            {
                "lat": "27.302222220000000874051693244837224483489990234375",
                "lng": "-102.0447222199999970371209201402962207794189453125",
                "name": "coahuila",
                "synonyms": [
                    "aguacate",
                    "aguacate"
                ]
            },
            {
                "lat": "21.018888889999999491919879801571369171142578125",
                "lng": "-101.262777779999993299497873522341251373291015625",
                "name": "guanajuato",
                "synonyms": [
                    "aguacate",
                    "aguacate"
                ]
            },
            {
                "lat": "20.566666670000000038953658076934516429901123046875",
                "lng": "-103.67638888999999835505150258541107177734375",
                "name": "jalisco",
                "synonyms": [
                    "aguacate",
                    "aguacate"
                ]
            },
            {
                "lat": "18.747499999999998721023075631819665431976318359375",
                "lng": "-99.070277779999997846971382386982440948486328125",
                "name": "morelos",
                "synonyms": [
                    "aguacate",
                    "aguacate"
                ]
            },
            {
                "lat": "21.74388889000000091300535132177174091339111328125",
                "lng": "-105.22833332999999811363522894680500030517578125",
                "name": "nayarit",
                "synonyms": [
                    "aguacate",
                    "aguacate"
                ]
            },
            {
                "lat": "16.898055559999999530873537878505885601043701171875",
                "lng": "-96.4141666700000001810622052289545536041259765625",
                "name": "oaxaca",
                "synonyms": [
                    "aguacate",
                    "aguacate"
                ]
            }
        ]
    },
    "azuki bean": {
        "image": "http://upload.wikimedia.org/wikipedia/commons/thumb/2/2b/Azuki_Beans.jpg/220px-Azuki_Beans.jpg",
        "key": "azuki bean",
        "places": [
            {
                "lat": "43.3333333300000020926745492033660411834716796875",
                "lng": "-6",
                "name": "principado_de_asturias",
                "synonyms": [
                    "jud칤a"
                ]
            },
            {
                "lat": "38",
                "lng": "-3.5",
                "name": "provincia_de_ja칠n_(espa침a)",
                "synonyms": [
                    "jud칤a"
                ]
            },
            {
                "lat": "42.25",
                "lng": "-2.5",
                "name": "la_rioja_(espa침a)",
                "synonyms": [
                    "jud칤a"
                ]
            },
            {
                "lat": "35.282499999999998863131622783839702606201171875",
                "lng": "-2.9474999999999997868371792719699442386627197265625",
                "name": "melilla",
                "synonyms": [
                    "jud칤a"
                ]
            },
            {
                "lat": "22.021666669999998333651092252694070339202880859375",
                "lng": "-102.35638889000000517626176588237285614013671875",
                "name": "aguascalientes",
                "synonyms": [
                    "frijol"
                ]
            },
            {
                "lat": "16.410000000000000142108547152020037174224853515625",
                "lng": "-92.4086111099999953921724227257072925567626953125",
                "name": "chiapas",
                "synonyms": [
                    "frijol"
                ]
            },
            {
                "lat": "19.096666670000001175822035293094813823699951171875",
                "lng": "-103.9608333299999998189377947710454463958740234375",
                "name": "colima",
                "synonyms": [
                    "frijol"
                ]
            },
            {
                "lat": "21.018888889999999491919879801571369171142578125",
                "lng": "-101.262777779999993299497873522341251373291015625",
                "name": "guanajuato",
                "synonyms": [
                    "frijol"
                ]
            },
            {
                "lat": "20.566666670000000038953658076934516429901123046875",
                "lng": "-103.67638888999999835505150258541107177734375",
                "name": "jalisco",
                "synonyms": [
                    "frijol"
                ]
            },
            {
                "lat": "18.747499999999998721023075631819665431976318359375",
                "lng": "-99.070277779999997846971382386982440948486328125",
                "name": "morelos",
                "synonyms": [
                    "frijol"
                ]
            },
            {
                "lat": "21.74388889000000091300535132177174091339111328125",
                "lng": "-105.22833332999999811363522894680500030517578125",
                "name": "nayarit",
                "synonyms": [
                    "frijol"
                ]
            },
            {
                "lat": "19.00361111000000136073140311054885387420654296875",
                "lng": "-97.888333329999994703030097298324108123779296875",
                "name": "puebla",
                "synonyms": [
                    "frijol"
                ]
            },
            {
                "lat": "25.002777779999998841731212451122701168060302734375",
                "lng": "-107.502777780000002394444891251623630523681640625",
                "name": "sinaloa",
                "synonyms": [
                    "frijol"
                ]
            },
            {
                "lat": "17.97222221999999902664058026857674121856689453125",
                "lng": "-92.5888888900000068815643317066133022308349609375",
                "name": "tabasco",
                "synonyms": [
                    "frijol"
                ]
            },
            {
                "lat": "19.428888889999999634028426953591406345367431640625",
                "lng": "-98.16083333000000266110873781144618988037109375",
                "name": "tlaxcala",
                "synonyms": [
                    "frijol"
                ]
            },
            {
                "lat": "23.29277778000000154179360833950340747833251953125",
                "lng": "-102.7005555599999979676795192062854766845703125",
                "name": "zacatecas",
                "synonyms": [
                    "frijol"
                ]
            }
        ]
    },
    "banana": {
        "image": "http://upload.wikimedia.org/wikipedia/commons/thumb/f/ff/Banana_and_cross_section.jpg/250px-Banana_and_cross_section.jpg",
        "key": "banana",
        "places": [
            {
                "lat": "37.92999999999999971578290569595992565155029296875",
                "lng": "-121.9500000000000028421709430404007434844970703125",
                "name": "contra_costa_county_california",
                "synonyms": [
                    "banana",
                    "banana"
                ]
            },
            {
                "lat": "37.43999999999999772626324556767940521240234375",
                "lng": "-122.3599999999999994315658113919198513031005859375",
                "name": "san_mateo_county_california",
                "synonyms": [
                    "banana",
                    "banana"
                ]
            },
            {
                "lat": "28.300000000000000710542735760100185871124267578125",
                "lng": "-80.7000000000000028421709430404007434844970703125",
                "name": "brevard_county_florida",
                "synonyms": [
                    "banana",
                    "banana"
                ]
            },
            {
                "lat": "13.5",
                "lng": "144.80000000000001136868377216160297393798828125",
                "name": "guam",
                "synonyms": [
                    "banana",
                    "banana"
                ]
            },
            {
                "lat": "15.183333329999999961046341923065483570098876953125",
                "lng": "145.75",
                "name": "saipan",
                "synonyms": [
                    "banana",
                    "banana"
                ]
            },
            {
                "lat": "41.53999999999999914734871708787977695465087890625",
                "lng": "-81.659999999999996589394868351519107818603515625",
                "name": "cuyahoga_county_ohio",
                "synonyms": [
                    "banana",
                    "banana"
                ]
            },
            {
                "lat": "47.840000000000003410605131648480892181396484375",
                "lng": "-123.5799999999999982946974341757595539093017578125",
                "name": "jefferson_county_washington",
                "synonyms": [
                    "banana",
                    "banana"
                ]
            },
            {
                "lat": "46.22999999999999687361196265555918216705322265625",
                "lng": "-118.4800000000000039790393202565610408782958984375",
                "name": "walla_walla_county_washington",
                "synonyms": [
                    "banana",
                    "banana"
                ]
            },
            {
                "lat": "18.836388889999998497160049737431108951568603515625",
                "lng": "-90.4033333299999952714642859064042568206787109375",
                "name": "campeche",
                "synonyms": [
                    "pl치tano",
                    "pl치tano"
                ]
            },
            {
                "lat": "16.410000000000000142108547152020037174224853515625",
                "lng": "-92.4086111099999953921724227257072925567626953125",
                "name": "chiapas",
                "synonyms": [
                    "pl치tano",
                    "pl치tano"
                ]
            },
            {
                "lat": "19.096666670000001175822035293094813823699951171875",
                "lng": "-103.9608333299999998189377947710454463958740234375",
                "name": "colima",
                "synonyms": [
                    "pl치tano",
                    "pl치tano"
                ]
            },
            {
                "lat": "20.566666670000000038953658076934516429901123046875",
                "lng": "-103.67638888999999835505150258541107177734375",
                "name": "jalisco",
                "synonyms": [
                    "pl치tano",
                    "pl치tano"
                ]
            },
            {
                "lat": "18.747499999999998721023075631819665431976318359375",
                "lng": "-99.070277779999997846971382386982440948486328125",
                "name": "morelos",
                "synonyms": [
                    "pl치tano",
                    "pl치tano"
                ]
            },
            {
                "lat": "21.74388889000000091300535132177174091339111328125",
                "lng": "-105.22833332999999811363522894680500030517578125",
                "name": "nayarit",
                "synonyms": [
                    "pl치tano",
                    "pl치tano"
                ]
            },
            {
                "lat": "17.97222221999999902664058026857674121856689453125",
                "lng": "-92.5888888900000068815643317066133022308349609375",
                "name": "tabasco",
                "synonyms": [
                    "pl치tano",
                    "pl치tano"
                ]
            }
        ]
    },
    "bean": {
        "image": "",
        "key": "bean",
        "places": [
            {
                "lat": "53.06666666999999648623997927643358707427978515625",
                "lng": "-0.1833333299999999888019175386943970806896686553955078125",
                "name": "lincolnshire",
                "synonyms": [
                    "bean"
                ]
            }
        ]
    },
    "beet": {
        "image": "http://upload.wikimedia.org/wikipedia/commons/thumb/a/ae/Detroitdarkredbeets.png/220px-Detroitdarkredbeets.png",
        "key": "beet",
        "places": [
            {
                "lat": "34.3599999999999994315658113919198513031005859375",
                "lng": "-119.150000000000005684341886080801486968994140625",
                "name": "ventura_county_california",
                "synonyms": [
                    "beet"
                ]
            },
            {
                "lat": "40.64999999999999857891452847979962825775146484375",
                "lng": "-105.4599999999999937472239253111183643341064453125",
                "name": "larimer_county_colorado",
                "synonyms": [
                    "beet"
                ]
            },
            {
                "lat": "53.06666666999999648623997927643358707427978515625",
                "lng": "-0.1833333299999999888019175386943970806896686553955078125",
                "name": "lincolnshire",
                "synonyms": [
                    "beet"
                ]
            },
            {
                "lat": "52.6666666699999979073254507966339588165283203125",
                "lng": "1",
                "name": "norfolk",
                "synonyms": [
                    "beet"
                ]
            },
            {
                "lat": "52.1666666699999979073254507966339588165283203125",
                "lng": "1",
                "name": "suffolk",
                "synonyms": [
                    "beet"
                ]
            }
        ]
    },
    "bell pepper": {
        "image": "http://upload.wikimedia.org/wikipedia/commons/thumb/1/1f/Poivrons_Luc_Viatour.jpg/220px-Poivrons_Luc_Viatour.jpg",
        "key": "bell pepper",
        "places": [
            {
                "lat": "32.241944439999997484846971929073333740234375",
                "lng": "-87.7894444399999969164127833209931850433349609375",
                "name": "marengo_county_alabama",
                "synonyms": [
                    "pepper"
                ]
            },
            {
                "lat": "27.89999999999999857891452847979962825775146484375",
                "lng": "-82.7399999999999948840923025272786617279052734375",
                "name": "pinellas_county_florida",
                "synonyms": [
                    "pepper"
                ]
            },
            {
                "lat": "33.64999999999999857891452847979962825775146484375",
                "lng": "-84.030000000000001136868377216160297393798828125",
                "name": "rockdale_county_georgia",
                "synonyms": [
                    "pepper"
                ]
            },
            {
                "lat": "38.39999999999999857891452847979962825775146484375",
                "lng": "-85.43999999999999772626324556767940521240234375",
                "name": "oldham_county_kentucky",
                "synonyms": [
                    "pepper"
                ]
            },
            {
                "lat": "37.409999999999996589394868351519107818603515625",
                "lng": "-83.68999999999999772626324556767940521240234375",
                "name": "owsley_county_kentucky",
                "synonyms": [
                    "pepper"
                ]
            },
            {
                "lat": "41.53999999999999914734871708787977695465087890625",
                "lng": "-81.659999999999996589394868351519107818603515625",
                "name": "cuyahoga_county_ohio",
                "synonyms": [
                    "pepper"
                ]
            },
            {
                "lat": "30.059999999999998721023075631819665431976318359375",
                "lng": "-99.349999999999994315658113919198513031005859375",
                "name": "kerr_county_texas",
                "synonyms": [
                    "pepper"
                ]
            },
            {
                "lat": "32.780000000000001136868377216160297393798828125",
                "lng": "-95.3799999999999954525264911353588104248046875",
                "name": "wood_county_texas",
                "synonyms": [
                    "pepper"
                ]
            },
            {
                "lat": "50.39999999999999857891452847979962825775146484375",
                "lng": "-4.9000000000000003552713678800500929355621337890625",
                "name": "cornwall",
                "synonyms": [
                    "pepper"
                ]
            },
            {
                "lat": "53.06666666999999648623997927643358707427978515625",
                "lng": "-0.1833333299999999888019175386943970806896686553955078125",
                "name": "lincolnshire",
                "synonyms": [
                    "pepper"
                ]
            }
        ]
    },
    "berry": {
        "image": "",
        "key": "berry",
        "places": [
            {
                "lat": "33.719999999999998863131622783839702606201171875",
                "lng": "-87.738611109999993686869856901466846466064453125",
                "name": "fayette_county_alabama",
                "synonyms": [
                    "berry"
                ]
            },
            {
                "lat": "39.659999999999996589394868351519107818603515625",
                "lng": "-121.599999999999994315658113919198513031005859375",
                "name": "butte_county_california",
                "synonyms": [
                    "berry"
                ]
            },
            {
                "lat": "33.6700000000000017053025658242404460906982421875",
                "lng": "-117.780000000000001136868377216160297393798828125",
                "name": "orange_county_california",
                "synonyms": [
                    "berry"
                ]
            },
            {
                "lat": "33.35000000000000142108547152020037174224853515625",
                "lng": "-84.7600000000000051159076974727213382720947265625",
                "name": "coweta_county_georgia",
                "synonyms": [
                    "berry"
                ]
            },
            {
                "lat": "34.25999999999999801048033987171947956085205078125",
                "lng": "-85.219999999999998863131622783839702606201171875",
                "name": "floyd_county_georgia",
                "synonyms": [
                    "berry"
                ]
            },
            {
                "lat": "33.840000000000003410605131648480892181396484375",
                "lng": "-83.43999999999999772626324556767940521240234375",
                "name": "oconee_county_georgia",
                "synonyms": [
                    "berry"
                ]
            },
            {
                "lat": "42.0786111099999970974749885499477386474609375",
                "lng": "-92.5313888900000023340908228419721126556396484375",
                "name": "tama_county_iowa",
                "synonyms": [
                    "berry"
                ]
            },
            {
                "lat": "37.21000000000000085265128291212022304534912109375",
                "lng": "-86.68000000000000682121026329696178436279296875",
                "name": "butler_county_kentucky",
                "synonyms": [
                    "berry"
                ]
            },
            {
                "lat": "37.7000000000000028421709430404007434844970703125",
                "lng": "-85.9599999999999937472239253111183643341064453125",
                "name": "hardin_county_kentucky",
                "synonyms": [
                    "berry"
                ]
            },
            {
                "lat": "38.43999999999999772626324556767940521240234375",
                "lng": "-84.3299999999999982946974341757595539093017578125",
                "name": "harrison_county_kentucky",
                "synonyms": [
                    "berry"
                ]
            },
            {
                "lat": "38.46000000000000085265128291212022304534912109375",
                "lng": "-85.1200000000000045474735088646411895751953125",
                "name": "henry_county_kentucky",
                "synonyms": [
                    "berry"
                ]
            },
            {
                "lat": "38.68999999999999772626324556767940521240234375",
                "lng": "-84.3599999999999994315658113919198513031005859375",
                "name": "pendleton_county_kentucky",
                "synonyms": [
                    "berry"
                ]
            },
            {
                "lat": "32.2999999999999971578290569595992565155029296875",
                "lng": "-92.5499999999999971578290569595992565155029296875",
                "name": "jackson_parish_louisiana",
                "synonyms": [
                    "berry"
                ]
            },
            {
                "lat": "29.3900000000000005684341886080801486968994140625",
                "lng": "-89.4800000000000039790393202565610408782958984375",
                "name": "plaquemines_parish_louisiana",
                "synonyms": [
                    "berry"
                ]
            },
            {
                "lat": "39.23527777999999699432009947486221790313720703125",
                "lng": "-76.9413888899999989234856911934912204742431640625",
                "name": "howard_county_maryland",
                "synonyms": [
                    "berry"
                ]
            },
            {
                "lat": "31.559999999999998721023075631819665431976318359375",
                "lng": "-89.81999999999999317878973670303821563720703125",
                "name": "jefferson_davis_county_mississippi",
                "synonyms": [
                    "berry"
                ]
            },
            {
                "lat": "39.31000000000000227373675443232059478759765625",
                "lng": "-94.4200000000000017053025658242404460906982421875",
                "name": "clay_county_missouri",
                "synonyms": [
                    "berry"
                ]
            },
            {
                "lat": "37.6099999999999994315658113919198513031005859375",
                "lng": "-91.5",
                "name": "dent_county_missouri",
                "synonyms": [
                    "berry"
                ]
            },
            {
                "lat": "47.03999999999999914734871708787977695465087890625",
                "lng": "-113.93000000000000682121026329696178436279296875",
                "name": "missoula_county_montana",
                "synonyms": [
                    "berry"
                ]
            },
            {
                "lat": "36.75",
                "lng": "-100.4800000000000039790393202565610408782958984375",
                "name": "beaver_county_oklahoma",
                "synonyms": [
                    "berry"
                ]
            },
            {
                "lat": "36.1700000000000017053025658242404460906982421875",
                "lng": "-86.780000000000001136868377216160297393798828125",
                "name": "davidson_county_tennessee",
                "synonyms": [
                    "berry"
                ]
            },
            {
                "lat": "31.190000000000001278976924368180334568023681640625",
                "lng": "-98.2399999999999948840923025272786617279052734375",
                "name": "lampasas_county_texas",
                "synonyms": [
                    "berry"
                ]
            },
            {
                "lat": "30.65550999999999959300112095661461353302001953125",
                "lng": "-97.583899999999999863575794734060764312744140625",
                "name": "williamson_county_texas",
                "synonyms": [
                    "berry"
                ]
            },
            {
                "lat": "37.39999999999999857891452847979962825775146484375",
                "lng": "-76.5199999999999960209606797434389591217041015625",
                "name": "gloucester_county_virginia",
                "synonyms": [
                    "berry"
                ]
            },
            {
                "lat": "37.719999999999998863131622783839702606201171875",
                "lng": "-77.93000000000000682121026329696178436279296875",
                "name": "goochland_county_virginia",
                "synonyms": [
                    "berry"
                ]
            },
            {
                "lat": "38.7513888900000011972224456258118152618408203125",
                "lng": "-77.4763888899999955128805595450103282928466796875",
                "name": "manassas_virginia",
                "synonyms": [
                    "berry"
                ]
            },
            {
                "lat": "47.14999999999999857891452847979962825775146484375",
                "lng": "-123.8299999999999982946974341757595539093017578125",
                "name": "grays_harbor_county_washington",
                "synonyms": [
                    "berry"
                ]
            },
            {
                "lat": "50.71666667000000217058186535723507404327392578125",
                "lng": "-3.716666669999999950135816106921993196010589599609375",
                "name": "devon",
                "synonyms": [
                    "berry"
                ]
            }
        ]
    },
    "binomial nomenclature": {
        "image": "",
        "key": "binomial nomenclature",
        "places": [
            {
                "lat": "38.8299999999999982946974341757595539093017578125",
                "lng": "-82.31999999999999317878973670303821563720703125",
                "name": "gallia_county_ohio",
                "synonyms": [
                    "latin name"
                ]
            },
            {
                "lat": "44.46000000000000085265128291212022304534912109375",
                "lng": "-72.099999999999994315658113919198513031005859375",
                "name": "caledonia_county_vermont",
                "synonyms": [
                    "latin name"
                ]
            },
            {
                "lat": "51.75",
                "lng": "-1.2800000000000000266453525910037569701671600341796875",
                "name": "oxfordshire",
                "synonyms": [
                    "latin name"
                ]
            }
        ]
    },
    "bitter melon": {
        "image": "http://upload.wikimedia.org/wikipedia/commons/thumb/2/2f/Momordica_charantia_Blanco2.357.png/220px-Momordica_charantia_Blanco2.357.png",
        "key": "bitter melon",
        "places": [
            {
                "lat": "18.836388889999998497160049737431108951568603515625",
                "lng": "-90.4033333299999952714642859064042568206787109375",
                "name": "campeche",
                "synonyms": [
                    "ku"
                ]
            }
        ]
    },
    "black cherry": {
        "image": "http://upload.wikimedia.org/wikipedia/commons/thumb/0/0d/Amerikaanse_vogelkers_Prunus_serotina_closeup.jpg/220px-Amerikaanse_vogelkers_Prunus_serotina_closeup.jpg",
        "key": "black cherry",
        "places": [
            {
                "lat": "41.81666666999999648623997927643358707427978515625",
                "lng": "-78.4500000000000028421709430404007434844970703125",
                "name": "mckean_county_pennsylvania",
                "synonyms": [
                    "black cherry",
                    "black cherry"
                ]
            }
        ]
    },
    "black mulberry": {
        "image": "http://upload.wikimedia.org/wikipedia/commons/thumb/3/3b/Illustration_Morus_nigra0.jpg/220px-Illustration_Morus_nigra0.jpg",
        "key": "black mulberry",
        "places": [
            {
                "lat": "28.300000000000000710542735760100185871124267578125",
                "lng": "-80.7000000000000028421709430404007434844970703125",
                "name": "brevard_county_florida",
                "synonyms": [
                    "blackberry"
                ]
            },
            {
                "lat": "36.6700000000000017053025658242404460906982421875",
                "lng": "-79.8799999999999954525264911353588104248046875",
                "name": "henry_county_virginia",
                "synonyms": [
                    "blackberry"
                ]
            },
            {
                "lat": "51.4166666699999979073254507966339588165283203125",
                "lng": "-1",
                "name": "berkshire",
                "synonyms": [
                    "blackberry"
                ]
            },
            {
                "lat": "50.39999999999999857891452847979962825775146484375",
                "lng": "-4.9000000000000003552713678800500929355621337890625",
                "name": "cornwall",
                "synonyms": [
                    "blackberry"
                ]
            }
        ]
    },
    "blackberry": {
        "image": "http://upload.wikimedia.org/wikipedia/commons/thumb/7/78/Ripe%2C_ripening%2C_and_green_blackberries.jpg/220px-Ripe%2C_ripening%2C_and_green_blackberries.jpg",
        "key": "blackberry",
        "places": [
            {
                "lat": "28.300000000000000710542735760100185871124267578125",
                "lng": "-80.7000000000000028421709430404007434844970703125",
                "name": "brevard_county_florida",
                "synonyms": [
                    "blackberry",
                    "blackberry"
                ]
            },
            {
                "lat": "36.6700000000000017053025658242404460906982421875",
                "lng": "-79.8799999999999954525264911353588104248046875",
                "name": "henry_county_virginia",
                "synonyms": [
                    "blackberry",
                    "blackberry"
                ]
            },
            {
                "lat": "51.4166666699999979073254507966339588165283203125",
                "lng": "-1",
                "name": "berkshire",
                "synonyms": [
                    "blackberry",
                    "blackberry"
                ]
            },
            {
                "lat": "50.39999999999999857891452847979962825775146484375",
                "lng": "-4.9000000000000003552713678800500929355621337890625",
                "name": "cornwall",
                "synonyms": [
                    "blackberry",
                    "blackberry"
                ]
            }
        ]
    },
    "blueberry": {
        "image": "http://upload.wikimedia.org/wikipedia/commons/thumb/8/88/PattsBlueberries.jpg/220px-PattsBlueberries.jpg",
        "key": "blueberry",
        "places": [
            {
                "lat": "44.969999999999998863131622783839702606201171875",
                "lng": "-67.6099999999999994315658113919198513031005859375",
                "name": "washington_county_maine",
                "synonyms": [
                    "blueberry"
                ]
            },
            {
                "lat": "46.5799999999999982946974341757595539093017578125",
                "lng": "-94.9599999999999937472239253111183643341064453125",
                "name": "wadena_county_minnesota",
                "synonyms": [
                    "blueberry"
                ]
            },
            {
                "lat": "47.659999999999996589394868351519107818603515625",
                "lng": "-115.1299999999999954525264911353588104248046875",
                "name": "sanders_county_montana",
                "synonyms": [
                    "blueberry"
                ]
            },
            {
                "lat": "42.47999999999999687361196265555918216705322265625",
                "lng": "-124.1366666699999967704570735804736614227294921875",
                "name": "curry_county_oregon",
                "synonyms": [
                    "blueberries"
                ]
            },
            {
                "lat": "31.6099999999999994315658113919198513031005859375",
                "lng": "-94.6099999999999994315658113919198513031005859375",
                "name": "nacogdoches_county_texas",
                "synonyms": [
                    "blueberry"
                ]
            }
        ]
    },
    "borage": {
        "image": "http://upload.wikimedia.org/wikipedia/commons/thumb/7/75/Borage_starflower_Rohtopurasruoho_01.jpg/220px-Borage_starflower_Rohtopurasruoho_01.jpg",
        "key": "borage",
        "places": [
            {
                "lat": "42.25",
                "lng": "-2.5",
                "name": "la_rioja_(espa침a)",
                "synonyms": [
                    "borraja"
                ]
            }
        ]
    },
    "breadfruit": {
        "image": "http://upload.wikimedia.org/wikipedia/commons/thumb/5/57/Artocarpus_altilis_%28fruit%29.jpg/220px-Artocarpus_altilis_%28fruit%29.jpg",
        "key": "breadfruit",
        "places": [
            {
                "lat": "-11.0555555600000001703620000625960528850555419921875",
                "lng": "-171.077777779999991025761119090020656585693359375",
                "name": "swains_island",
                "synonyms": [
                    "breadfruit"
                ]
            },
            {
                "lat": "15.183333329999999961046341923065483570098876953125",
                "lng": "145.75",
                "name": "saipan",
                "synonyms": [
                    "breadfruit"
                ]
            }
        ]
    },
    "broadleaf arrowhead": {
        "image": "http://upload.wikimedia.org/wikipedia/commons/thumb/c/c3/Sagittaria_latifolia_%28flowers%29.jpg/220px-Sagittaria_latifolia_%28flowers%29.jpg",
        "key": "broadleaf arrowhead",
        "places": [
            {
                "lat": "45.53999999999999914734871708787977695465087890625",
                "lng": "-122.409999999999996589394868351519107818603515625",
                "name": "multnomah_county_oregon",
                "synonyms": [
                    "wapato"
                ]
            }
        ]
    },
    "broccoli": {
        "image": "http://upload.wikimedia.org/wikipedia/commons/thumb/0/03/Broccoli_and_cross_section_edit.jpg/220px-Broccoli_and_cross_section_edit.jpg",
        "key": "broccoli",
        "places": [
            {
                "lat": "38.5",
                "lng": "-0.5",
                "name": "provincia_de_alicante",
                "synonyms": [
                    "br칩coli"
                ]
            },
            {
                "lat": "21.018888889999999491919879801571369171142578125",
                "lng": "-101.262777779999993299497873522341251373291015625",
                "name": "guanajuato",
                "synonyms": [
                    "br칩coli"
                ]
            }
        ]
    },
    "brosimum alicastrum": {
        "image": "http://upload.wikimedia.org/wikipedia/commons/thumb/5/51/Brosimum-Alicastrum_02.jpg/220px-Brosimum-Alicastrum_02.jpg",
        "key": "brosimum alicastrum",
        "places": [
            {
                "lat": "18.406388889999998781377144041471183300018310546875",
                "lng": "-66.0638888900000011972224456258118152618408203125",
                "name": "san_juan_puerto_rico",
                "synonyms": [
                    "ram칩n"
                ]
            },
            {
                "lat": "28.8599999999999994315658113919198513031005859375",
                "lng": "-99.7600000000000051159076974727213382720947265625",
                "name": "zavala_county_texas",
                "synonyms": [
                    "ram칩n"
                ]
            },
            {
                "lat": "43.3333333300000020926745492033660411834716796875",
                "lng": "-6",
                "name": "principado_de_asturias",
                "synonyms": [
                    "ram칩n"
                ]
            },
            {
                "lat": "40.61609167000000297775841318070888519287109375",
                "lng": "-4.92903056000000017178308553411625325679779052734375",
                "name": "provincia_de_치vila",
                "synonyms": [
                    "ram칩n"
                ]
            },
            {
                "lat": "36.5",
                "lng": "-5.75",
                "name": "provincia_de_c치diz",
                "synonyms": [
                    "ram칩n"
                ]
            },
            {
                "lat": "40.8333333300000020926745492033660411834716796875",
                "lng": "-2.5",
                "name": "provincia_de_guadalajara",
                "synonyms": [
                    "ram칩n"
                ]
            },
            {
                "lat": "37.6666666699999979073254507966339588165283203125",
                "lng": "-7",
                "name": "provincia_de_huelva",
                "synonyms": [
                    "ram칩n"
                ]
            },
            {
                "lat": "38",
                "lng": "-1.8333333300000000942731048780842684209346771240234375",
                "name": "regi칩n_de_murcia",
                "synonyms": [
                    "ram칩n"
                ]
            },
            {
                "lat": "42.5",
                "lng": "-8.5",
                "name": "provincia_de_pontevedra",
                "synonyms": [
                    "ram칩n"
                ]
            },
            {
                "lat": "42.25",
                "lng": "-2.5",
                "name": "la_rioja_(espa침a)",
                "synonyms": [
                    "ram칩n"
                ]
            },
            {
                "lat": "35.8866670000000027584974304772913455963134765625",
                "lng": "-5.29999999999999982236431605997495353221893310546875",
                "name": "ceuta",
                "synonyms": [
                    "ram칩n"
                ]
            },
            {
                "lat": "22.021666669999998333651092252694070339202880859375",
                "lng": "-102.35638889000000517626176588237285614013671875",
                "name": "aguascalientes",
                "synonyms": [
                    "ram칩n"
                ]
            },
            {
                "lat": "27.302222220000000874051693244837224483489990234375",
                "lng": "-102.0447222199999970371209201402962207794189453125",
                "name": "coahuila",
                "synonyms": [
                    "ram칩n"
                ]
            },
            {
                "lat": "19.096666670000001175822035293094813823699951171875",
                "lng": "-103.9608333299999998189377947710454463958740234375",
                "name": "colima",
                "synonyms": [
                    "ram칩n"
                ]
            },
            {
                "lat": "24.934722220000001158268787548877298831939697265625",
                "lng": "-104.9119444399999991901495377533137798309326171875",
                "name": "durango",
                "synonyms": [
                    "ram칩n"
                ]
            },
            {
                "lat": "21.018888889999999491919879801571369171142578125",
                "lng": "-101.262777779999993299497873522341251373291015625",
                "name": "guanajuato",
                "synonyms": [
                    "ram칩n"
                ]
            },
            {
                "lat": "20.566666670000000038953658076934516429901123046875",
                "lng": "-103.67638888999999835505150258541107177734375",
                "name": "jalisco",
                "synonyms": [
                    "ram칩n"
                ]
            },
            {
                "lat": "21.74388889000000091300535132177174091339111328125",
                "lng": "-105.22833332999999811363522894680500030517578125",
                "name": "nayarit",
                "synonyms": [
                    "ram칩n"
                ]
            },
            {
                "lat": "19.60000000000000142108547152020037174224853515625",
                "lng": "-87.9166666699999979073254507966339588165283203125",
                "name": "quintana_roo",
                "synonyms": [
                    "ram칩n"
                ]
            },
            {
                "lat": "25.002777779999998841731212451122701168060302734375",
                "lng": "-107.502777780000002394444891251623630523681640625",
                "name": "sinaloa",
                "synonyms": [
                    "ram칩n"
                ]
            },
            {
                "lat": "24.287222220000000305617504636757075786590576171875",
                "lng": "-98.563333330000006071713869459927082061767578125",
                "name": "tamaulipas",
                "synonyms": [
                    "ram칩n"
                ]
            },
            {
                "lat": "19.190277779999998841731212451122701168060302734375",
                "lng": "-96.1533333299999952714642859064042568206787109375",
                "name": "veracruz",
                "synonyms": [
                    "ram칩n"
                ]
            },
            {
                "lat": "23.29277778000000154179360833950340747833251953125",
                "lng": "-102.7005555599999979676795192062854766845703125",
                "name": "zacatecas",
                "synonyms": [
                    "ram칩n"
                ]
            }
        ]
    },
    "cabbage": {
        "image": "http://upload.wikimedia.org/wikipedia/commons/thumb/6/6f/Cabbage_and_cross_section_on_white.jpg/220px-Cabbage_and_cross_section_on_white.jpg",
        "key": "cabbage",
        "places": [
            {
                "lat": "28.300000000000000710542735760100185871124267578125",
                "lng": "-80.7000000000000028421709430404007434844970703125",
                "name": "brevard_county_florida",
                "synonyms": [
                    "cabbage"
                ]
            },
            {
                "lat": "30.4200000000000017053025658242404460906982421875",
                "lng": "-83.900000000000005684341886080801486968994140625",
                "name": "jefferson_county_florida",
                "synonyms": [
                    "cabbage"
                ]
            },
            {
                "lat": "27.89999999999999857891452847979962825775146484375",
                "lng": "-82.7399999999999948840923025272786617279052734375",
                "name": "pinellas_county_florida",
                "synonyms": [
                    "cabbage"
                ]
            },
            {
                "lat": "31.8599999999999994315658113919198513031005859375",
                "lng": "-90.43999999999999772626324556767940521240234375",
                "name": "copiah_county_mississippi",
                "synonyms": [
                    "cabbage"
                ]
            },
            {
                "lat": "26.39999999999999857891452847979962825775146484375",
                "lng": "-98.18000000000000682121026329696178436279296875",
                "name": "hidalgo_county_texas",
                "synonyms": [
                    "cabbage"
                ]
            }
        ]
    },
    "cactaceae": {
        "image": "http://upload.wikimedia.org/wikipedia/commons/thumb/1/1c/Various_Cactaceae.jpg/220px-Various_Cactaceae.jpg",
        "key": "cactaceae",
        "places": [
            {
                "lat": "32.065277780000002394444891251623630523681640625",
                "lng": "-111.820833329999999250503606162965297698974609375",
                "name": "pima_county_arizona",
                "synonyms": [
                    "cactus",
                    "cactus"
                ]
            },
            {
                "lat": "33.03999999999999914734871708787977695465087890625",
                "lng": "-115.349999999999994315658113919198513031005859375",
                "name": "imperial_county_california",
                "synonyms": [
                    "cacti"
                ]
            },
            {
                "lat": "31.839999999999999857891452847979962825775146484375",
                "lng": "-103.56999999999999317878973670303821563720703125",
                "name": "loving_county_texas",
                "synonyms": [
                    "cacti"
                ]
            },
            {
                "lat": "35.840000000000003410605131648480892181396484375",
                "lng": "-101.8900000000000005684341886080801486968994140625",
                "name": "moore_county_texas",
                "synonyms": [
                    "cactus",
                    "cactus"
                ]
            },
            {
                "lat": "30",
                "lng": "-104.2300000000000039790393202565610408782958984375",
                "name": "presidio_county_texas",
                "synonyms": [
                    "cacti"
                ]
            },
            {
                "lat": "33.61999999999999744204615126363933086395263671875",
                "lng": "-95.0499999999999971578290569595992565155029296875",
                "name": "red_river_county_texas",
                "synonyms": [
                    "cactus",
                    "cactus"
                ]
            },
            {
                "lat": "30.230000000000000426325641456060111522674560546875",
                "lng": "-102.06999999999999317878973670303821563720703125",
                "name": "terrell_county_texas",
                "synonyms": [
                    "cactus",
                    "cactus"
                ]
            },